City_ID,City,Lat,Lng,Max Temp,Humidity,Cloudiness,Wind Speed,Country,Date
0,namibe,-15.1961,12.1522,297.11,79,81,2.95,AO,1682532895
1,adamstown,-25.066,-130.1015,297.29,61,0,2.3,PN,1682532896
2,waitangi,-43.9535,-176.5597,283.05,82,94,1.79,NZ,1682532896
3,port elizabeth,-33.918,25.5701,294.31,96,0,2.06,ZA,1682532896
4,iskateley,67.6803,53.1512,268.73,97,34,4.34,RU,1682532897
5,ushuaia,-54.8,-68.3,280.94,70,20,6.69,AR,1682532897
6,lihue,21.9789,-159.3672,295.92,79,20,3.09,US,1682532898
7,puerto natales,-51.7236,-72.4875,285.4,43,75,12.35,CL,1682532898
8,visakhapatnam,17.69,83.2093,301.09,89,20,1.03,IN,1682532899
9,ilulissat,69.2167,-51.1,274.16,93,100,2.06,GL,1682532899
10,callao,-12.0667,-77.15,299.31,69,0,6.69,PE,1682532718
11,badger,64.8,-147.5333,273.15,53,75,0.0,US,1682532900
12,blackmans bay,-43.0167,147.3167,287.22,75,87,2.77,AU,1682532901
13,sars,56.5502,57.1366,285.34,69,100,4.43,RU,1682532901
14,uvalde,29.3669,-99.767,299.89,54,40,3.6,US,1682532902
15,timbuktu,16.7735,-3.0074,308.69,6,2,4.01,ML,1682532903
16,longwy,49.5194,5.7688,284.84,50,80,0.89,FR,1682532904
17,kharan,28.5833,65.4167,298.35,23,100,0.16,PK,1682532904
18,margaret river,-33.95,115.0667,289.8,67,95,7.71,AU,1682532906
19,dudinka,69.4058,86.1778,266.83,96,100,3.84,RU,1682532907
20,isafjordur,66.0755,-23.124,274.17,47,0,2.06,IS,1682532907
21,punta arenas,-53.15,-70.9167,283.16,66,75,7.2,CL,1682532908
22,birao,10.2849,22.7882,302.36,45,100,0.92,CF,1682532909
23,zhicheng,30.2956,111.5047,288.7,80,82,1.1,CN,1682532909
24,jamestown,42.097,-79.2353,284.0,57,100,1.54,US,1682532883
25,port-aux-francais,-49.35,70.2167,281.6,97,100,1.71,TF,1682532910
26,constantia,44.1833,28.65,284.65,87,98,7.4,RO,1682532912
27,el nido,11.1858,119.3956,301.91,69,97,2.82,PH,1682532912
28,afaahiti,-17.75,-149.2833,300.08,81,80,4.17,PF,1682532913
29,astrakhan,46.3497,48.0408,290.08,55,0,2.0,RU,1682532914
30,west island,-12.1568,96.8225,300.14,83,75,8.23,CC,1682532915
31,iqaluit,63.7506,-68.5145,273.0,93,75,2.57,CA,1682532916
32,adrar,20.5022,-10.0711,309.6,6,0,2.25,MR,1682532916
33,edinburgh of the seven seas,-37.0676,-12.3116,289.02,72,87,9.95,SH,1682532917
34,island harbour,50.724,-1.2758,284.78,75,95,4.02,GB,1682532918
35,geraldton,-28.7667,114.6,285.38,94,3,2.57,AU,1682532918
36,lompoc,34.6391,-120.4579,295.2,81,29,1.79,US,1682532756
37,hammerfest,70.6634,23.6821,274.4,80,75,7.2,NO,1682532920
38,oriximina,-1.7656,-55.8661,300.66,85,99,1.19,BR,1682532920
39,inderbor,48.55,51.7833,289.14,80,100,6.08,KZ,1682532921
40,saipan,15.1355,145.701,300.18,100,30,7.15,MP,1682532922
41,turpan,42.9333,89.1667,291.69,17,3,2.5,CN,1682532922
42,pamekasan,-7.1568,113.4746,299.4,85,34,2.23,ID,1682532923
43,kanniyakumari,8.0833,77.5667,301.73,75,82,1.65,IN,1682532924
44,cole harbour,44.6724,-63.4751,285.46,61,75,6.17,CA,1682532924
45,albany,42.6001,-73.9662,289.03,34,82,0.45,US,1682532912
46,puerto ayora,-0.7393,-90.3518,303.13,86,21,3.13,EC,1682532802
47,port lincoln,-34.7333,135.8667,289.31,82,18,5.15,AU,1682532926
48,college,64.8569,-147.8028,273.65,54,75,0.0,US,1682532927
49,longyearbyen,78.2186,15.6401,271.06,74,75,1.03,SJ,1682532927
50,ancud,-41.8697,-73.8203,284.82,83,88,0.95,CL,1682532928
51,ust-nera,64.5667,143.2,260.25,98,57,1.24,RU,1682532929
52,yellowknife,62.456,-114.3525,274.44,100,100,3.09,CA,1682532929
53,mount gambier,-37.8333,140.7667,287.1,95,63,1.94,AU,1682532930
54,mont-dore,-22.2833,166.5833,296.48,99,100,1.77,NC,1682532930
55,ribeira grande,38.5167,-28.7,291.37,88,40,8.94,PT,1682532932
56,san patricio,28.017,-97.5169,303.8,69,78,5.86,US,1682532933
57,waynesville,35.4887,-82.9887,284.67,94,100,0.45,US,1682532934
58,susuman,62.7833,148.1667,257.51,96,49,1.86,RU,1682532934
59,port mathurin,-19.6833,63.4167,299.2,81,17,5.06,MU,1682532935
60,xiaoweizhai,26.1903,107.5125,286.69,90,91,1.55,CN,1682532936
61,buka,40.8108,69.1986,292.3,32,0,2.04,UZ,1682532936
62,spring creek,40.7266,-115.5859,286.7,35,33,0.78,US,1682532937
63,say,13.1007,2.3689,310.38,9,72,3.96,NE,1682532790
64,kerikeri,-35.2268,173.9474,286.9,90,40,1.36,NZ,1682532938
65,luis correia,-2.8792,-41.6669,300.79,80,19,4.26,BR,1682532939
66,grytviken,-54.2811,-36.5092,274.03,79,18,5.3,GS,1682532939
67,klyuchi,52.2667,79.1667,288.16,44,83,1.25,RU,1682532940
68,avarua,-21.2078,-159.775,299.18,73,84,3.09,CK,1682532940
69,olonkinbyen,70.9221,-8.7187,270.23,75,94,7.15,SJ,1682532941
70,buzet,45.4094,13.9667,287.02,72,69,0.92,HR,1682532941
71,hasaki,35.7333,140.8333,286.05,60,100,6.6,JP,1682532942
72,ust'-kulom,61.6864,53.6902,282.19,99,100,2.02,RU,1682532942
73,spanish wells,26.323,-81.7957,305.94,64,0,6.17,US,1682532942
74,westport,41.1415,-73.3579,288.68,64,100,3.09,US,1682532943
75,thompson,55.7435,-97.8558,283.24,29,40,5.14,CA,1682532944
76,invercargill,-46.4,168.35,284.83,82,85,0.89,NZ,1682532944
77,mimizan,44.2006,-1.2289,294.41,86,99,0.61,FR,1682532945
78,talnakh,69.4865,88.3972,266.6,99,98,2.22,RU,1682532946
79,bilibino,68.0546,166.4372,264.23,57,65,2.31,RU,1682532946
80,mercedes,-34.6515,-59.4307,299.74,42,56,3.07,AR,1682532946
81,nuku'alofa,-21.1333,-175.2,297.34,94,100,5.14,TO,1682532947
82,fujin,47.26,132.0322,278.54,41,65,2.19,CN,1682532947
83,flying fish cove,-10.4217,105.6791,300.46,76,100,4.65,CX,1682532948
84,lesnoy,57.6198,63.0784,287.98,54,100,1.91,RU,1682532949
85,st. john's,47.5649,-52.7093,278.03,82,100,8.75,CA,1682532950
86,aleksandrov gay,50.147,48.5704,287.01,67,87,2.32,RU,1682532950
87,bethel,41.3712,-73.414,288.35,57,100,2.06,US,1682532833
88,balikpapan,-1.2675,116.8289,299.7,94,20,0.51,ID,1682532951
89,mizdah,31.4451,12.9801,299.09,22,13,7.45,LY,1682532952
90,caleta de carquin,-11.0925,-77.6267,299.16,71,37,4.59,PE,1682532952
91,greymouth,-42.4667,171.2,287.8,65,85,4.4,NZ,1682532952
92,papatowai,-46.5619,169.4708,283.5,86,77,5.33,NZ,1682532953
93,stanley,54.868,-1.6985,282.99,65,20,2.57,GB,1682532953
94,utrik,11.2278,169.8474,299.87,79,53,9.64,MH,1682532954
95,malango,-2.9627,119.9001,293.67,99,100,0.63,ID,1682532954
96,valdivia,-39.8142,-73.2459,290.2,56,86,1.31,CL,1682532955
97,kapa'a,22.0752,-159.319,296.33,79,20,3.09,US,1682532734
98,vila franca do campo,37.7167,-25.4333,291.38,84,19,6.28,PT,1682532721
99,anadyr,64.75,177.4833,259.43,78,0,5.0,RU,1682532956
100,pisco,-13.7,-76.2167,298.18,69,0,4.63,PE,1682532956
101,east london,-33.0153,27.9116,295.74,88,6,6.24,ZA,1682532956
102,tomaszow mazowiecki,51.5313,20.0086,280.13,61,78,3.66,PL,1682532957
103,bredasdorp,-34.5322,20.0403,288.85,77,96,2.0,ZA,1682532919
104,acapulco de juarez,16.8634,-99.8901,304.05,62,100,4.63,MX,1682532732
105,whitehorse,60.7161,-135.0538,275.43,74,75,3.09,CA,1682532897
106,urumqi,43.801,87.6005,283.68,32,0,3.0,CN,1682532958
107,tutzing,47.9094,11.2803,282.83,66,20,3.09,DE,1682532959
108,bakanas,44.8081,76.2772,288.54,29,0,6.22,KZ,1682532959
109,vilyuysk,63.7553,121.6247,270.93,90,100,3.69,RU,1682532960
110,hassi messaoud,31.6804,6.0729,308.07,10,0,1.03,DZ,1682532961
111,juan griego,11.0817,-63.9655,304.22,62,68,5.14,VE,1682532961
112,yelizovo,53.1873,158.3805,270.23,79,0,3.13,RU,1682532962
113,sisimiut,66.9395,-53.6735,272.97,93,91,4.18,GL,1682532963
114,north side,19.35,-81.2,303.19,62,20,5.66,KY,1682532965
115,ulaangom,49.9811,92.0667,273.56,58,100,5.9,MN,1682532966
116,hermanus,-34.4187,19.2345,286.93,83,98,2.83,ZA,1682532967
117,pallisa,1.145,33.7094,293.46,79,82,1.98,UG,1682532968
118,mabaruma,8.2,-59.7833,299.54,91,100,1.93,GY,1682532969
119,laurel,39.0993,-76.8483,294.1,51,75,5.66,US,1682532729
120,georgetown,5.4112,100.3354,300.11,89,40,1.03,MY,1682532807
121,mugia,43.1041,-9.2179,292.13,90,98,3.93,ES,1682532972
122,kongwa,-6.2,36.4167,291.22,83,39,2.59,TZ,1682532972
123,nagqu,31.5,92.0,271.67,72,65,1.42,CN,1682532973
124,ryotsu-minato,38.0833,138.4333,281.94,81,60,4.15,JP,1682532974
125,tibati,6.4667,12.6333,297.87,68,72,2.4,CM,1682532974
126,semnan,35.5729,53.3971,289.81,62,85,2.82,IR,1682532975
127,yangambi,0.8102,24.4336,293.85,97,99,1.74,CD,1682532976
128,gadzhiyevo,69.2551,33.3362,271.16,80,99,3.16,RU,1682532976
129,jatai,-17.8814,-51.7144,301.67,51,8,2.8,BR,1682532977
130,las trojes,14.0667,-85.9833,305.74,30,70,2.22,HN,1682532978
131,fukuecho,32.6881,128.8419,286.7,64,0,4.32,JP,1682532979
132,belyy yar,53.6039,91.3903,269.09,93,49,2.0,RU,1682532980
133,selfoss,63.9331,-20.9971,275.95,93,100,3.52,IS,1682532980
134,wailua homesteads,22.0669,-159.378,295.59,78,20,3.09,US,1682532981
135,ouadda,8.0777,22.4007,293.82,88,97,0.79,CF,1682532982
136,freetown,8.484,-13.2299,301.99,70,40,5.14,SL,1682532982
137,hawaiian paradise park,19.5933,-154.9731,298.65,81,0,1.54,US,1682532959
138,aykhal,66.0,111.5,262.85,100,87,1.02,RU,1682532984
139,nuriootpa,-34.4833,139.0,289.01,85,85,2.44,AU,1682532985
140,sos'va,59.1766,61.8558,287.6,59,100,2.96,RU,1682532985
141,tosontsengel,48.7567,98.2839,265.19,44,99,2.17,MN,1682532986
142,port douglas,-16.4833,145.4667,295.81,83,12,3.64,AU,1682532987
143,chipata,-13.6333,32.65,290.33,74,64,3.08,ZM,1682532987
144,chui,-33.6971,-53.4616,295.37,62,67,2.47,UY,1682532988
145,new norfolk,-42.7826,147.0587,287.87,61,99,1.14,AU,1682532989
146,placido de castro,-10.3353,-67.1856,305.76,48,80,1.81,BR,1682532989
147,choma,-16.8065,26.9531,290.81,49,37,1.04,ZM,1682532990
148,bikenibeu village,1.3673,173.1241,300.13,83,40,3.6,KI,1682532991
149,poronaysk,49.2167,143.1167,273.98,91,83,1.61,RU,1682532991
150,hermansverk,61.1846,6.8502,276.4,80,75,5.66,NO,1682532992
151,petropavlovsk-kamchatsky,53.0452,158.6483,269.48,80,0,3.0,RU,1682532993
152,arkhangel'sk,64.5401,40.5433,277.21,48,0,4.0,RU,1682532993
153,guichon,-32.35,-57.2,295.08,57,61,3.08,UY,1682532994
154,charlottetown,46.2352,-63.1267,282.7,61,75,3.6,CA,1682532944
155,bamboo flat,11.7,92.7167,301.83,76,97,3.31,IN,1682532995
156,tiksi,71.6872,128.8694,256.63,95,17,1.79,RU,1682532996
157,yenotayevka,47.2456,47.0281,288.94,48,1,1.81,RU,1682532997
158,argo,37.6333,22.7333,291.36,57,19,3.05,GR,1682532998
159,udachny,66.4167,112.4,267.48,97,96,2.13,RU,1682532998
160,mata-utu,-13.2816,-176.1745,301.75,69,100,2.11,WF,1682532999
161,zakamensk,50.3741,103.2863,265.5,93,100,1.79,RU,1682532999
162,chonchi,-42.6128,-73.8092,284.71,82,60,0.38,CL,1682533000
163,remire-montjoly,4.9167,-52.2667,299.17,89,100,1.03,GF,1682533000
164,al wajh,26.2455,36.4525,298.12,65,0,1.54,SA,1682533001
165,petlawad,23.0,74.8,301.0,40,83,3.13,IN,1682533001
166,haiku-pauwela,20.9219,-156.3051,296.51,84,40,3.09,US,1682533001
167,grand island,40.925,-98.342,292.8,37,75,2.06,US,1682532817
168,altay,47.8667,88.1167,276.81,61,14,3.55,CN,1682533002
169,labrador city,52.9463,-66.9114,283.1,37,75,4.12,CA,1682533003
170,yangjiang,21.85,111.9667,293.34,76,59,2.54,CN,1682533003
171,bubaque,11.2833,-15.8333,299.08,72,89,8.59,GW,1682533004
172,ormara,25.2088,64.6357,299.45,72,0,5.01,PK,1682533004
173,florence,43.7667,11.25,291.97,41,0,3.09,IT,1682532908
174,linxia chengguanzhen,35.6003,103.2064,283.67,44,39,2.59,CN,1682533005
175,velizh,55.6056,31.1967,285.85,65,94,1.69,RU,1682533005
176,ballina,-28.8667,153.5667,290.25,84,82,3.74,AU,1682533006
177,richards bay,-28.783,32.0377,296.21,85,0,5.86,ZA,1682533006
178,egilsstadir,65.2653,-14.3948,272.1,64,75,6.17,IS,1682533007
179,barcelos,41.5388,-8.6151,297.55,76,99,2.27,PT,1682533007
180,minas de marcona,-15.2119,-75.1103,295.77,57,31,5.68,PE,1682533007
181,kanker,20.2719,81.4931,300.55,47,20,1.37,IN,1682533008
182,las heras,-46.5419,-68.9359,287.25,22,35,7.0,AR,1682533008
183,chibougamau,49.9168,-74.3659,276.94,87,100,3.09,CA,1682533009
184,mana,5.6592,-53.7767,297.06,93,100,1.97,GF,1682533009
185,ketchikan,55.3422,-131.6461,280.41,76,100,4.12,US,1682533009
186,ambodifotatra,-16.9833,49.85,300.52,73,29,7.38,MG,1682533010
187,kodiak,57.79,-152.4072,276.88,75,40,2.57,US,1682533010
188,lebu,-37.6167,-73.65,289.81,75,83,3.5,CL,1682533010
189,vadso,70.0744,29.7487,275.64,75,75,8.23,NO,1682533011
190,tralee,52.2704,-9.7026,285.5,81,95,3.4,IE,1682533011
191,vorgashor,67.5833,63.95,261.98,98,84,1.84,RU,1682533012
192,kupang,-10.1667,123.5833,299.56,86,95,5.0,ID,1682533012
193,ribeira brava,32.65,-17.0667,296.32,70,67,0.93,PT,1682533013
194,necochea,-38.5473,-58.7368,294.82,55,5,7.26,AR,1682533013
195,fale old settlement,-9.3852,-171.2468,301.46,77,100,5.54,TK,1682533014
196,bondo,3.8146,23.6866,296.02,81,91,1.53,CD,1682533014
197,happy valley-goose bay,53.3168,-60.3315,283.32,50,20,6.17,CA,1682532754
198,graham,47.0529,-122.2943,288.08,67,0,0.45,US,1682532730
199,abatskoye,56.2875,70.4555,289.33,47,100,3.71,RU,1682533015
200,hithadhoo,-0.6,73.0833,301.75,76,99,3.35,MV,1682533016
201,nelson bay,-32.7167,152.15,290.37,93,66,2.24,AU,1682533016
202,brokopondo,4.75,-55.1667,296.71,92,100,1.85,SR,1682533017
203,dunedin,-45.8742,170.5036,283.66,75,21,5.99,NZ,1682533017
204,port blair,11.6667,92.75,301.84,76,97,3.5,IN,1682533017
205,fort bragg,35.139,-79.006,295.39,47,100,3.09,US,1682532847
206,serenje,-13.2325,30.2352,287.54,88,74,1.33,ZM,1682533018
207,kendari,-3.945,122.4989,297.47,93,97,1.11,ID,1682533019
208,hargeysa,9.56,44.065,298.81,52,87,2.78,SO,1682533019
209,san antonio de pale,-1.4014,5.6325,300.87,76,99,3.51,GQ,1682533020
210,mejit,10.2753,170.8646,300.29,79,97,9.18,MH,1682533020
211,lensk,60.7253,114.9278,272.25,98,100,1.27,RU,1682533021
212,cabo san lucas,22.8909,-109.9124,302.38,58,20,5.14,MX,1682532950
213,al ghayzah,16.2079,52.176,301.93,76,8,7.03,YE,1682533021
214,port isabel,26.0734,-97.2086,303.19,69,40,6.69,US,1682533021
215,floro,61.5996,5.0328,278.13,70,40,4.63,NO,1682533022
216,polyarnyy,69.1989,33.4478,271.47,79,99,3.09,RU,1682533023
217,pariaman,-0.619,100.12,298.18,86,99,1.17,ID,1682533024
218,zhaqsy,51.9083,67.3133,288.08,38,88,3.31,KZ,1682533024
219,weno,7.4515,151.8468,300.12,89,75,2.06,FM,1682533025
220,colac,-38.3333,143.5833,290.47,52,78,5.4,AU,1682533025
221,kuala terengganu,5.3302,103.1408,300.12,94,40,1.54,MY,1682533026
222,pangody,65.85,74.4859,264.07,96,13,3.32,RU,1682533027
223,kruisfontein,-34.0033,24.7314,291.97,88,62,2.53,ZA,1682533027
224,sligo,54.2697,-8.4694,286.11,54,75,3.09,IE,1682533028
225,nola,40.922,14.5329,290.38,52,44,1.4,IT,1682533029
226,palopo,-2.9996,120.1921,298.58,87,100,1.45,ID,1682533029
227,al jubayl,27.0112,49.6583,299.41,40,54,3.57,SA,1682533030
228,enewetak,11.3474,162.3373,300.29,81,32,8.91,MH,1682533031
229,portland,45.5234,-122.6762,291.61,65,75,2.57,US,1682532628
230,les cayes,18.2,-73.75,301.92,62,52,4.59,HT,1682533032
231,saint-pierre,-21.3393,55.4781,296.97,78,100,3.09,RE,1682533033
232,pontes e lacerda,-15.2261,-59.3353,302.74,64,2,0.72,BR,1682533034
233,pandan,14.0453,124.1694,299.09,86,40,4.28,PH,1682533034
234,opuwo,-18.0607,13.84,297.51,51,98,2.23,NA,1682533035
235,hotan,37.0997,79.9269,291.97,23,100,1.83,CN,1682533036
236,tabou,4.423,-7.3528,300.12,79,99,2.06,CI,1682533037
237,sefrou,33.8319,-4.828,305.68,9,40,4.12,MA,1682533037
238,tsiombe,-25.3,45.4833,292.66,82,10,1.04,MG,1682533038
239,luanda,-8.8368,13.2343,300.15,74,40,4.12,AO,1682533038
240,guerrero negro,27.9769,-114.0611,288.9,73,65,5.77,MX,1682532759
241,gladstone,-23.85,151.25,293.11,77,40,4.63,AU,1682533039
242,ulladulla,-35.35,150.4667,287.75,81,59,2.68,AU,1682533040
243,alenquer,-1.9417,-54.7383,301.37,78,100,0.26,BR,1682533041
244,grande prairie,55.1667,-118.8027,281.25,36,100,5.66,CA,1682533042
245,qaqortoq,60.7167,-46.0333,275.21,82,86,1.58,GL,1682533043
246,nemuro,43.3236,145.575,277.28,97,100,7.88,JP,1682533043
247,tazovsky,67.4667,78.7,260.27,99,74,2.03,RU,1682533044
248,kuhmo,64.1333,29.5167,275.55,100,100,3.56,FI,1682533044
249,pucheng,27.9233,118.5333,286.28,94,31,1.01,CN,1682533045
250,kununurra,-15.7667,128.7333,296.14,88,52,2.57,AU,1682533046
251,rio preto da eva,-2.6994,-59.6997,300.76,88,90,2.04,BR,1682533047
252,jobner,26.9667,75.3833,300.83,26,78,4.81,IN,1682533048
253,hawassa,7.05,38.4667,292.25,78,94,1.59,ET,1682533049
254,rio grande,-32.035,-52.0986,297.21,71,45,3.33,BR,1682533050
255,capinopolis,-18.6819,-49.5697,301.04,59,30,2.49,BR,1682533050
256,rikaze,29.25,88.8833,279.03,33,80,2.3,CN,1682533051
257,alesund,62.4723,6.1549,276.99,92,75,4.63,NO,1682532860
258,el colomo,19.05,-104.25,299.14,46,88,3.22,MX,1682533053
259,la passe,45.5549,-0.8967,289.28,91,100,2.06,FR,1682533053
260,dalandzadgad,43.5708,104.425,277.98,23,70,4.67,MN,1682533054
261,tamanrasset,22.785,5.5228,303.1,9,0,2.57,DZ,1682533054
262,yung shue wan,22.2333,114.1167,295.19,81,88,0.45,HK,1682533055
263,kavaratti,10.5669,72.642,301.17,69,89,2.64,IN,1682533056
264,santa cruz,-17.8,-63.1667,301.85,61,75,6.17,BO,1682533056
265,ta`u,-14.2336,-169.5144,301.12,74,62,3.8,AS,1682533058
266,sant lluis,39.8526,4.2594,291.37,59,0,2.57,ES,1682533058
267,atafu village,-8.5421,-172.5159,301.51,76,100,5.66,TK,1682533058
268,boise,43.6135,-116.2035,291.51,44,0,4.12,US,1682533019
269,budaun,28.05,79.1167,301.35,22,93,2.53,IN,1682533059
270,nikolayevsk-on-amure,53.1406,140.73,272.99,98,100,0.69,RU,1682533060
271,mount pearl,47.5166,-52.7813,277.57,81,100,8.75,CA,1682533060
272,antsiranana,-12.2787,49.2917,298.12,91,100,3.06,MG,1682533061
273,kolonia town,6.964,158.206,301.39,79,93,7.58,FM,1682533061
274,chiang kham,19.5233,100.3,297.32,76,44,1.32,TH,1682533061
275,popondetta,-8.7537,148.2534,296.49,90,84,1.29,PG,1682533062
276,ponta delgada,37.7333,-25.6667,291.55,88,20,7.2,PT,1682533062
277,puerto aysen,-45.4,-72.7,284.17,66,40,7.2,CL,1682533063
278,qamdo,31.1667,97.2333,271.67,64,96,2.12,CN,1682533063
279,puerto baquerizo moreno,-0.9,-89.6,302.7,70,20,2.06,EC,1682533064
280,sarangani,5.4033,125.4636,302.05,73,100,7.49,PH,1682533065
281,naze,28.3667,129.4833,288.66,68,2,4.29,JP,1682533065
282,malabar,-33.9667,151.25,290.25,86,40,3.6,AU,1682532866
283,sovetskiy,61.3614,63.5842,281.78,95,100,1.0,RU,1682533065
284,gonzaga,44.9498,10.8209,291.51,48,92,3.54,IT,1682533066
285,queenstown,-31.8976,26.8753,291.4,34,6,2.94,ZA,1682533066
286,norilsk,69.3535,88.2027,266.72,98,99,2.01,RU,1682533067
287,hamilton,39.1834,-84.5333,290.33,53,0,2.06,US,1682533067
288,jhang sadr,31.2715,72.3284,301.72,17,94,1.06,PK,1682533067
289,howard springs,-12.497,131.047,300.1,97,46,3.04,AU,1682533068
290,kaga bandoro,6.9896,19.1874,297.88,68,98,2.03,CF,1682533069
291,muswellbrook,-32.2667,150.9,284.44,93,95,0.49,AU,1682533069
292,camlachie,43.036,-82.1616,281.94,74,75,5.14,CA,1682533069
293,fortuna,40.5982,-124.1573,293.11,73,94,0.89,US,1682533070
294,boizenburg,53.3833,10.7167,281.55,64,93,4.08,DE,1682533070
295,el calafate,-50.3408,-72.2768,280.53,57,83,4.19,AR,1682533071
296,el tigre,8.8875,-64.2454,304.69,45,79,3.61,VE,1682533071
297,keflavik,64.0049,-22.5624,277.1,93,100,6.69,IS,1682533072
298,margate,51.3813,1.3862,283.09,65,59,1.79,GB,1682533072
299,pyrzyce,53.1462,14.8926,281.08,79,98,3.37,PL,1682533072
300,wynyard,-41.0,145.7167,289.81,93,100,5.46,AU,1682533073
301,gunjur,13.2019,-16.7339,300.19,65,0,4.12,GM,1682533073
302,khorixas,-20.3667,14.9667,299.32,47,86,5.38,NA,1682533073
303,hobyo,5.3505,48.5268,302.49,74,13,7.0,SO,1682533074
304,dolinsk,47.35,142.8,274.86,90,71,2.08,RU,1682533074
305,fort myers shores,26.7092,-81.7459,305.95,51,75,5.66,US,1682533075
306,carnarvon,-24.8667,113.6333,292.96,68,0,7.26,AU,1682533075
307,sinabang,2.4803,96.3801,300.08,83,100,1.78,ID,1682533076
308,farasan,16.7022,42.1183,302.44,79,63,3.35,SA,1682533076
309,mosfellsbaer,64.1667,-21.7,276.88,70,75,3.6,IS,1682533077
310,rongelap,11.1635,166.8941,300.14,80,98,9.33,MH,1682533077
311,usinsk,65.9939,57.5281,268.82,90,11,1.16,RU,1682533077
312,al kharijah,25.4514,30.5464,301.09,13,0,3.25,EG,1682533078
313,pimentel,-6.8367,-79.9342,303.31,62,20,5.66,PE,1682533078
314,baiyin,36.5583,104.2081,284.92,59,28,3.35,CN,1682533079
315,santa elena de uairen,4.6167,-61.1333,292.5,89,100,1.89,VE,1682533079
316,sinop,41.7711,34.8709,283.96,82,87,2.12,TR,1682533080
317,millom,54.2107,-3.272,284.29,59,42,0.46,GB,1682533080
318,newport,51.5877,-2.9984,285.38,77,100,1.98,GB,1682533081
319,abepura,-2.6333,140.5833,297.6,83,40,1.03,ID,1682533081
320,kalianget,-7.05,113.9333,300.55,81,36,3.31,ID,1682533081
321,zyryanskoye,56.8306,86.6258,275.22,75,80,1.57,RU,1682533082
322,sechura,-5.5569,-80.8222,302.83,56,32,3.78,PE,1682533082
323,camocim,-2.9022,-40.8411,300.88,85,40,4.93,BR,1682533083
324,kayangel,8.0823,134.7173,302.02,74,11,4.35,PW,1682533083
325,antofagasta,-23.65,-70.4,294.75,68,30,3.97,CL,1682533062
326,marsabit,2.3284,37.9899,292.4,81,82,1.82,KE,1682533084
327,port macquarie,-31.4333,152.9167,287.53,68,97,2.02,AU,1682532997
328,alakurtti,66.9672,30.3491,272.81,92,93,4.4,RU,1682533085
329,aasiaat,68.7098,-52.8699,272.43,96,99,3.42,GL,1682533085
330,bel ombre,-4.6167,55.4167,301.06,89,40,1.54,SC,1682533086
331,saint-philippe,-21.3585,55.7679,296.92,76,84,4.0,RE,1682533086
332,port-gentil,-0.7193,8.7815,301.13,78,20,3.09,GA,1682533086
333,bathsheba,13.2167,-59.5167,302.49,79,20,5.14,BB,1682533087
334,vanino,49.0869,140.2543,273.55,62,51,2.3,RU,1682533087
335,hovd,48.0056,91.6419,276.34,48,99,1.76,MN,1682533088
336,ciudad real,39.0,-4.0,303.18,12,40,2.24,ES,1682533088
337,buala,-8.145,159.5921,299.84,80,24,1.43,SB,1682533089
338,kailua-kona,19.6406,-155.9956,298.13,90,75,2.57,US,1682533089
339,long beach,33.767,-118.1892,298.88,75,0,4.12,US,1682532993
340,nar'yan-mar,67.6713,53.087,268.62,96,33,4.3,RU,1682533090
341,tamiahua,21.2667,-97.45,298.7,87,100,2.59,MX,1682533090
342,coquimbo,-29.9533,-71.3436,288.0,94,100,3.09,CL,1682533062
343,kolonia,50.9333,6.95,284.16,46,0,3.6,DE,1682533091
344,nadym,65.5333,72.5167,268.5,90,57,3.28,RU,1682533092
345,eureka,40.8021,-124.1637,293.82,77,96,2.24,US,1682532925
346,cooper's town,26.8667,-77.5167,298.18,68,3,2.75,BS,1682533093
347,tadine,-21.55,167.8833,297.14,82,100,3.44,NC,1682533093
348,gazojak,41.1875,61.4036,296.54,10,47,6.1,TM,1682533093
349,olbia,40.9214,9.4856,291.18,72,0,4.12,IT,1682533094
350,bay roberts,47.5999,-53.2648,278.23,74,15,4.92,CA,1682532996
351,sultanah,24.4926,39.5857,305.4,12,0,5.14,SA,1682533095
352,belgrade,44.804,20.4651,282.84,56,50,4.25,RS,1682533095
353,cananeia,-25.0147,-47.9267,296.56,81,100,2.34,BR,1682533096
354,victorica,-36.2151,-65.4359,299.24,32,71,0.72,AR,1682533096
355,luchegorsk,46.4764,134.2569,275.18,39,14,2.0,RU,1682533097
356,ad dawadimi,24.5077,44.3924,295.79,58,9,8.94,SA,1682533097
357,manicore,-5.8092,-61.3003,305.12,66,78,1.03,BR,1682533098
358,tekman,39.6436,41.5078,279.1,93,93,0.28,TR,1682533098
359,sinan,34.8262,126.1086,276.21,77,0,3.85,KR,1682533098
360,isangel,-19.55,169.2667,299.12,78,100,0.61,VU,1682533099
361,khandyga,62.6667,135.6,264.84,95,45,0.96,RU,1682533099
362,kyzyl,51.7,94.45,272.45,53,45,2.71,RU,1682532953
363,solnechnyy,50.7214,136.6319,269.79,95,94,1.43,RU,1682533100
364,burang,30.25,81.1667,270.29,95,100,2.23,CN,1682533101
365,colonia,50.9333,6.95,284.16,46,0,3.6,DE,1682532970
366,severo-yeniseyskiy,60.3725,93.0408,268.73,96,100,2.48,RU,1682533102
367,childress,34.4264,-100.204,285.33,95,100,5.34,US,1682532840
368,nelson,-41.2833,173.2833,284.98,87,90,1.3,NZ,1682533102
369,konarka,19.9,86.1167,301.37,79,93,4.87,IN,1682533103
370,vilyuchinsk,52.9306,158.4028,270.3,82,4,4.09,RU,1682533104
371,amalapuram,16.5833,82.0167,299.56,84,10,1.53,IN,1682533104
372,nova sintra,14.8667,-24.7167,292.97,76,0,8.22,CV,1682533104
373,midvagur,62.0511,-7.1939,278.61,60,82,4.12,FO,1682533105
374,suomussalmi,64.8869,28.9078,274.32,100,100,4.4,FI,1682533105
375,yenifakili,39.2114,35.0004,286.8,54,100,5.61,TR,1682533106
376,charters towers,-20.1,146.2667,290.91,86,20,3.27,AU,1682533106
377,monrovia,6.3005,-10.7969,302.02,77,100,1.14,LR,1682533002
378,sarkand,45.41,79.9186,282.71,44,0,2.69,KZ,1682533107
379,brookings,44.3114,-96.7984,286.34,43,100,7.2,US,1682532910
380,newman,37.3138,-121.0208,299.42,44,6,0.89,US,1682533107
381,trouville-sur-mer,49.3657,0.0804,285.57,78,100,4.12,FR,1682533108
382,cumbal,0.9088,-77.7915,286.75,63,75,6.17,CO,1682533109
383,bojnurd,37.4747,57.329,288.12,82,0,2.06,IR,1682533109
384,post,33.1909,-101.3782,294.82,41,13,6.35,US,1682533110
385,revda,56.801,59.9303,287.55,47,100,4.03,RU,1682533110
386,wadowice,49.8834,19.4929,280.25,74,80,0.89,PL,1682533110
387,kodinsk,58.6881,99.1844,270.22,93,100,2.08,RU,1682533111
388,dryden,49.7833,-92.7503,281.31,31,0,3.6,CA,1682533111
389,nago,26.5881,127.9761,292.62,72,63,4.56,JP,1682533112
390,am timan,11.0297,20.2827,303.61,46,76,4.61,TD,1682533112
391,kenai,60.5544,-151.2583,277.2,70,100,2.57,US,1682533113
392,port saint john's,-31.6229,29.5448,295.46,91,1,4.64,ZA,1682533114
393,iquique,-20.2208,-70.1431,297.17,71,17,2.76,CL,1682533095
394,talara,-4.5772,-81.2719,303.57,66,40,1.54,PE,1682533114
395,sanctuary point,-35.1114,150.629,290.55,84,59,2.81,AU,1682533115
396,genhe,50.7833,121.5167,269.84,67,45,1.9,CN,1682533115
397,kili,5.6439,169.1211,301.21,79,67,8.17,MH,1682533116
398,soanierana ivongo,-16.9167,49.5833,298.22,86,47,3.27,MG,1682533116
399,aqadyr,48.2553,72.8483,286.1,36,4,3.45,KZ,1682533116
400,kokhma,56.9349,41.0915,283.88,95,97,3.28,RU,1682533117
401,duong dong,10.2167,103.9667,298.15,94,40,1.54,VN,1682533117
402,glendive,47.1053,-104.7125,288.94,44,0,7.72,US,1682533118
403,verkhnevilyuysk,63.4453,120.3167,271.09,94,100,2.69,RU,1682533118
404,arraial do cabo,-22.9661,-42.0278,301.07,69,20,8.23,BR,1682533119
405,kiiminki,65.1314,25.7974,284.96,99,100,5.35,FI,1682533119
406,valparaiso,-33.0393,-71.6273,290.28,73,40,5.14,CL,1682532904
407,chulakkurgan,43.765,69.1814,288.29,29,0,8.87,KZ,1682533120
408,marquette,46.5333,-87.6335,279.96,67,62,2.47,US,1682533120
409,villa de cos,23.2833,-102.35,297.68,7,100,2.12,MX,1682533121
410,greenland,43.0362,-70.8328,286.31,76,100,4.63,US,1682533121
411,mar del plata,-38.0023,-57.5575,298.16,79,0,5.66,AR,1682532866
412,iguape,-24.7081,-47.5553,295.43,88,100,2.51,BR,1682533122
413,taro,-8.3862,115.28,297.15,97,92,0.39,ID,1682533122
414,palangkaraya,-2.2,113.8333,297.02,96,99,1.05,ID,1682533123
415,merizo village,13.2658,144.6691,300.14,93,22,8.15,GU,1682533123
416,port shepstone,-30.7414,30.455,295.96,92,11,7.63,ZA,1682533124
417,laconia,43.5279,-71.4704,286.86,69,40,4.12,US,1682533124
418,kourou,5.1552,-52.6478,299.18,87,100,2.54,GF,1682533125
419,jimma,7.6667,36.8333,291.48,79,77,0.64,ET,1682533125
420,bechar,31.6167,-2.2167,307.33,10,20,2.06,DZ,1682533126
421,sinjai,-5.1241,120.253,297.38,91,100,1.8,ID,1682533126
422,sao gabriel da cachoeira,-0.1303,-67.0892,305.04,62,20,2.57,BR,1682532864
423,leava,-14.3,-178.1667,301.41,75,95,7.5,WF,1682533127
424,constitucion,-35.3333,-72.4167,292.53,53,100,4.02,CL,1682533127
425,salinopolis,-0.6136,-47.3561,301.33,77,75,4.41,BR,1682533128
426,kudahuvadhoo,2.6708,72.8944,302.22,75,100,4.25,MV,1682533129
427,kimbe,-5.5502,150.1429,297.64,92,93,1.47,PG,1682533129
428,shimoda,34.6667,138.95,285.43,71,11,5.2,JP,1682533129
429,deoband,29.7,77.6833,300.11,22,99,3.21,IN,1682533130
430,zarand,30.8127,56.564,292.26,37,99,4.05,IR,1682533130
431,ola,59.5833,151.2833,269.18,87,18,2.52,RU,1682533131
432,hanceville,34.0607,-86.7675,290.87,78,99,3.69,US,1682533131
433,ust'-kalmanka,52.1207,83.305,281.92,83,72,2.56,RU,1682533131
434,inirida,3.8653,-67.9239,303.06,69,78,0.66,CO,1682533132
435,cidreira,-30.1811,-50.2056,294.57,81,97,3.09,BR,1682533132
436,kutum,14.2,24.6667,303.66,24,53,3.9,SD,1682533133
437,taunggyi,20.7833,97.0333,292.55,39,0,1.74,MM,1682533133
438,cudillero,43.5622,-6.1459,293.21,84,40,2.57,ES,1682533134
439,don luan,11.5333,106.9167,299.57,73,96,0.17,VN,1682532949
440,murzuq,25.9155,13.9184,302.43,14,0,3.45,LY,1682533135
441,nynashamn,58.9034,17.9479,280.46,62,46,5.4,SE,1682533135
442,frontera,26.9333,-101.45,304.44,37,75,3.6,MX,1682533136
443,boa vista,2.8197,-60.6733,298.14,88,100,5.14,BR,1682533136
444,nejo,9.5,35.5,293.43,57,89,1.76,ET,1682533136
445,lupane,-18.9315,27.807,293.96,34,54,1.71,ZW,1682533137
446,santa cruz cabralia,-16.2781,-39.0247,300.28,83,20,2.06,BR,1682533137
447,sanibel,26.449,-82.0223,305.96,61,14,2.24,US,1682533138
448,medellin,6.2518,-75.5636,299.97,60,40,7.2,CO,1682533033
449,yaren,-0.5472,166.916,301.78,74,7,6.46,NR,1682533139
450,pangai,-19.8,-174.35,298.21,83,40,7.2,TO,1682533140
451,badiyah,22.45,58.8,296.32,64,82,1.97,OM,1682533140
452,kangding,30.0513,101.9603,278.25,91,99,2.35,CN,1682533141
453,miches,18.9836,-69.0476,305.26,61,14,4.49,DO,1682533141
454,tindouf,27.6711,-8.1474,311.4,9,20,2.57,DZ,1682533142
455,cradock,-32.1642,25.6192,294.57,29,11,3.15,ZA,1682533142
456,sitka,57.0531,-135.33,279.09,75,100,4.63,US,1682533143
457,jamiltepec,16.2833,-97.8167,307.21,24,59,3.68,MX,1682533143
458,basco,20.4487,121.9702,298.69,77,20,7.65,PH,1682533144
459,belmonte,-15.8631,-38.8828,300.49,70,23,3.45,BR,1682533144
460,la ronge,55.1001,-105.2842,277.29,81,100,6.69,CA,1682533144
461,crane,31.3974,-102.3501,299.17,19,16,5.46,US,1682533145
462,montpon-menesterol,45.0,0.1667,290.18,92,100,1.27,FR,1682532907
463,uturoa,-16.7333,-151.4333,300.58,78,60,4.26,PF,1682533146
464,humberto de campos,-2.5983,-43.4611,302.37,77,38,2.66,BR,1682533146
465,luganville,-15.5333,167.1667,297.7,85,98,1.73,VU,1682533146
466,luoyang,34.6836,112.4536,289.11,73,70,2.82,CN,1682533101
467,loukhi,66.0764,33.0381,272.53,84,98,3.98,RU,1682533147
468,kirakira,-10.4544,161.9205,299.11,83,94,1.5,SB,1682533148
469,laramie,41.3114,-105.5911,282.33,55,20,1.54,US,1682533051
470,taiynsha,53.8478,69.7639,289.75,37,90,4.46,KZ,1682533149
471,huilong,31.8111,121.655,285.67,72,57,4.77,CN,1682533149
472,isola di capo rizzuto,38.96,17.0933,288.56,55,0,1.54,IT,1682533149
473,gounou gaya,9.6294,15.5132,309.74,16,98,2.33,TD,1682533150
474,brades,16.7918,-62.2106,301.91,83,20,6.17,MS,1682533150
475,tobelo,1.7284,128.0095,299.86,83,76,0.92,ID,1682533151
476,santa luzia,-19.7697,-43.8514,301.34,53,75,3.6,BR,1682533151
477,djougou,9.7085,1.666,301.18,57,89,2.93,BJ,1682533152
478,holualoa,19.6228,-155.9522,296.06,90,75,2.57,US,1682533152
479,anicuns,-16.4611,-49.9617,299.49,67,43,0.92,BR,1682533153
480,syas'stroy,60.1367,32.5691,284.39,68,100,2.54,RU,1682533153
481,tolanaro,-25.0319,46.9987,293.31,74,3,1.79,MG,1682533153
482,markovo,57.3206,107.0881,269.86,98,41,1.45,RU,1682533154
483,quellon,-43.1167,-73.6167,285.29,71,75,2.06,CL,1682533154
484,swan hill,-35.3378,143.5544,291.38,48,14,6.94,AU,1682533155
485,karratha,-20.7377,116.8463,299.72,42,100,2.81,AU,1682533155
486,san jeronimo de juarez,17.1333,-100.4667,303.75,52,81,3.68,MX,1682533156
487,la sarre,48.8002,-79.1996,275.77,77,100,2.8,CA,1682533156
488,raseiniai,55.3736,23.1217,278.19,80,100,5.35,LT,1682533157
489,xining,36.6167,101.7667,282.76,37,88,3.03,CN,1682533137
490,nchelenge,-9.3451,28.734,297.65,69,63,3.12,ZM,1682533158
491,taitung city,22.7583,121.1444,294.62,82,86,4.58,TW,1682533158
492,sucua,-2.4667,-78.1667,300.56,69,20,2.57,EC,1682533158
493,makubetsu,45.3714,141.8211,276.97,87,82,6.41,JP,1682533159
494,kachia,9.8667,7.95,299.22,63,100,4.9,NG,1682533159
495,borskoye,53.0333,51.7167,286.75,69,100,4.62,RU,1682533160
496,maloye ganyushkino,46.6,49.2667,289.97,46,60,3.13,KZ,1682533160
497,laguna,38.421,-121.4238,300.94,41,0,2.06,US,1682533161
498,candido de abreu,-24.5669,-51.3333,292.69,98,100,1.13,BR,1682533161
499,camalu,30.85,-116.0667,291.57,63,21,3.26,MX,1682533161
500,port alfred,-33.5906,26.891,293.81,93,46,6.89,ZA,1682533162
501,amursk,50.2261,136.8994,273.4,80,71,2.95,RU,1682533162
502,jayapura,-2.5333,140.7,297.81,92,100,2.08,ID,1682533163
503,fisterra,42.9049,-9.2629,292.05,91,100,2.45,ES,1682533163
504,bandarbeyla,9.4942,50.8122,302.11,77,8,3.63,SO,1682533163
505,tura,25.5198,90.2201,297.8,37,48,2.0,IN,1682533164
506,ciudad lazaro cardenas,17.9583,-102.2,302.17,55,78,4.05,MX,1682533165
507,ivot,53.6756,34.1872,284.75,71,74,1.75,RU,1682533165
508,omaruru,-21.4333,15.9333,296.5,54,74,2.52,NA,1682533165
509,faaa,-17.55,-149.6,301.13,69,40,2.06,PF,1682533166
510,tual,-5.6667,132.75,301.79,76,90,4.52,ID,1682533166
511,choibalsan,48.0667,114.5,282.48,23,87,5.69,MN,1682533167
512,el-tor,28.2364,33.6254,298.99,37,0,6.33,EG,1682533167
513,northam,51.0333,-4.2167,285.16,79,99,5.16,GB,1682533168
514,ust'-ordynskiy,52.805,104.7508,270.88,90,100,8.22,RU,1682533168
515,piacabucu,-10.4056,-36.4344,301.56,70,66,4.52,BR,1682533169
516,sao joao da barra,-21.6403,-41.0511,302.2,79,24,6.01,BR,1682533169
517,fuglafjordur,62.244,-6.814,278.41,72,63,6.13,FO,1682533170
518,camargo,27.6667,-105.1667,298.61,8,82,3.99,MX,1682533136
519,at taj,24.2049,23.2857,301.3,13,4,4.52,LY,1682533170
520,general jose de san martin,-26.5374,-59.3416,300.96,36,0,2.32,AR,1682533171
521,churapcha,62.0025,132.4325,269.5,83,53,3.67,RU,1682533171
522,nefta,33.8731,7.8777,306.29,16,4,1.99,TN,1682533172
523,broken hill,-31.95,141.4333,291.97,44,0,8.08,AU,1682533172
524,yerofey pavlovich,53.9667,121.9667,269.37,74,74,2.0,RU,1682533173
525,naduvattam,11.4833,76.5667,287.05,89,74,1.68,IN,1682533173
526,pumiao,22.75,108.4833,294.37,69,59,2.98,CN,1682533173
527,ulsteinvik,62.3432,5.8487,276.99,91,100,3.58,NO,1682533174
528,usakos,-22.0,15.6,298.87,48,60,2.62,NA,1682533174
529,rock springs,41.5875,-109.2029,282.84,57,75,4.63,US,1682532933
530,jaguaribe,-5.8906,-38.6219,305.51,47,88,2.32,BR,1682533175
531,luderitz,-26.6481,15.1594,288.21,87,4,2.12,NA,1682533176
532,jumla,29.2747,82.1838,281.15,80,100,2.04,NP,1682533590
533,xichang,27.8964,102.2634,286.05,86,3,1.37,CN,1682533177
534,pembroke,45.8168,-77.1162,282.14,53,95,1.31,CA,1682533177
535,isla mujeres,21.2311,-86.731,303.24,64,53,6.37,MX,1682533177
536,pacific grove,36.6177,-121.9166,296.29,80,0,2.68,US,1682532958
537,savanna-la-mar,18.219,-78.1332,302.55,55,51,2.1,JM,1682533178
538,kone,-21.0595,164.8658,295.06,90,41,1.44,NC,1682533179
539,mpika,-11.8343,31.4529,287.61,89,44,0.87,ZM,1682533179
540,okha,53.5739,142.9478,272.49,98,100,7.31,RU,1682533180
541,kinna,57.5073,12.6946,280.62,51,51,4.88,SE,1682533180
542,general acha,-37.377,-64.6043,299.58,20,37,4.07,AR,1682533181
543,barrancas,10.9576,-72.7877,308.02,40,89,2.77,CO,1682533181
544,aitape,-3.1374,142.3475,298.36,88,99,2.03,PG,1682533182
545,mutoko,-17.397,32.2268,289.78,63,15,2.82,ZW,1682533182
546,erdenet,49.0333,104.0833,265.69,56,96,2.92,MN,1682532890
547,amahai,-3.3333,128.9167,299.01,86,99,1.67,ID,1682533183
548,wladyslawowo,54.7909,18.4009,280.64,67,27,8.96,PL,1682533183
549,suva,-18.1416,178.4415,296.86,94,75,2.57,FJ,1682533173
550,nosy varika,-20.5833,48.5333,296.8,86,95,3.23,MG,1682533184
551,chabahar,25.2919,60.643,299.5,77,12,3.94,IR,1682533185
552,sao raimundo das mangabeiras,-7.0219,-45.4811,307.33,36,80,2.71,BR,1682533185
553,shitanjing,39.2342,106.3439,285.36,22,99,4.16,CN,1682533186
554,salamanca,40.8333,-6.0,297.03,44,94,3.62,ES,1682532968
555,general conesa,-40.1,-64.4333,293.88,40,0,4.35,AR,1682533187
556,krasnyy chikoy,50.3643,108.7512,268.68,88,100,3.12,RU,1682533187
557,east lansing,42.737,-84.4839,284.26,48,40,3.09,US,1682533040
558,aomori,40.8244,140.74,282.33,77,82,3.13,JP,1682533188
559,agat village,13.3886,144.6585,300.35,92,16,8.04,GU,1682533188
560,dubbo,-32.25,148.6167,285.22,87,100,4.12,AU,1682533189
561,peace river,56.2501,-117.286,282.32,46,100,2.57,CA,1682533189
562,motygino,58.1831,94.7592,266.34,97,44,0.9,RU,1682533190
563,kavieng,-2.5744,150.7967,300.88,79,28,3.3,PG,1682533190
564,sakon nakhon,17.3333,103.8333,298.12,67,56,3.82,TH,1682533191
565,skeldon,5.8833,-57.1333,296.51,96,100,1.7,GY,1682533191
566,baruun-urt,46.6806,113.2792,280.17,64,96,7.72,MN,1682533191
567,kamina,-8.7386,24.9906,292.12,91,49,1.09,CD,1682533192
568,mek'ele,13.4967,39.4753,294.48,46,83,0.95,ET,1682533192
569,cartagena del chaira,1.3349,-74.8429,297.17,90,100,1.19,CO,1682533091
570,tot'ma,59.9747,42.7642,282.65,97,100,2.56,RU,1682533193
571,puerto ayacucho,5.6639,-67.6236,304.71,54,92,1.51,VE,1682533194
572,veraval,20.9,70.3667,299.55,74,32,5.74,IN,1682533194
